{
"type": "FeatureCollection",
"name": "national_university2",
"features": [
{ "type": "Feature", "properties": { "name": "北海道大学", "rikei_hensachi": 65, "bunkei_hensachi": 69, "rikei_hensachi_rank": 7, "bunkei_hensachi_rank": 7 }, "geometry": { "type": "Point", "coordinates": [ 141.3469983704355, 43.070727108512415 ] } },
{ "type": "Feature", "properties": { "name": "北海道教育大学", "rikei_hensachi": null, "bunkei_hensachi": null, "rikei_hensachi_rank": 22, "bunkei_hensachi_rank": 25 }, "geometry": { "type": "Point", "coordinates": [ 141.396712149931403, 43.16817010697131 ] } },
{ "type": "Feature", "properties": { "name": "室蘭工業大学", "rikei_hensachi": 47, "bunkei_hensachi": null, "rikei_hensachi_rank": 21, "bunkei_hensachi_rank": 25 }, "geometry": { "type": "Point", "coordinates": [ 141.032879342660351, 42.377304493278452 ] } },
{ "type": "Feature", "properties": { "name": "小樽商科大学", "rikei_hensachi": null, "bunkei_hensachi": 56, "rikei_hensachi_rank": 22, "bunkei_hensachi_rank": 16 }, "geometry": { "type": "Point", "coordinates": [ 140.979558998045036, 43.19050300211282 ] } },
{ "type": "Feature", "properties": { "name": "帯広畜産大学", "rikei_hensachi": 53, "bunkei_hensachi": null, "rikei_hensachi_rank": 18, "bunkei_hensachi_rank": 25 }, "geometry": { "type": "Point", "coordinates": [ 143.175296622989976, 42.875379209405388 ] } },
{ "type": "Feature", "properties": { "name": "北見工業大学", "rikei_hensachi": 47, "bunkei_hensachi": null, "rikei_hensachi_rank": 21, "bunkei_hensachi_rank": 25 }, "geometry": { "type": "Point", "coordinates": [ 143.90538362129891, 43.822307549588878 ] } },
{ "type": "Feature", "properties": { "name": "旭川医科大学", "rikei_hensachi": 62, "bunkei_hensachi": null, "rikei_hensachi_rank": 9, "bunkei_hensachi_rank": 25 }, "geometry": { "type": "Point", "coordinates": [ 142.385431608419537, 43.728413951887838 ] } },
{ "type": "Feature", "properties": { "name": "弘前大学", "rikei_hensachi": 56, "bunkei_hensachi": 54, "rikei_hensachi_rank": 15, "bunkei_hensachi_rank": 18 }, "geometry": { "type": "Point", "coordinates": [ 140.471275980592509, 40.589170257724689 ] } },
{ "type": "Feature", "properties": { "name": "岩手大学", "rikei_hensachi": 55, "bunkei_hensachi": 52, "rikei_hensachi_rank": 16, "bunkei_hensachi_rank": 20 }, "geometry": { "type": "Point", "coordinates": [ 141.135295019203852, 39.715556766264029 ] } },
{ "type": "Feature", "properties": { "name": "東北大学", "rikei_hensachi": 65, "bunkei_hensachi": 69, "rikei_hensachi_rank": 7, "bunkei_hensachi_rank": 7 }, "geometry": { "type": "Point", "coordinates": [ 140.873007656898693, 38.254312357035978 ] } },
{ "type": "Feature", "properties": { "name": "宮城教育大学", "rikei_hensachi": null, "bunkei_hensachi": 52, "rikei_hensachi_rank": 22, "bunkei_hensachi_rank": 20 }, "geometry": { "type": "Point", "coordinates": [ 140.831060768260528, 38.259129247283447 ] } },
{ "type": "Feature", "properties": { "name": "秋田大学", "rikei_hensachi": 54, "bunkei_hensachi": 51, "rikei_hensachi_rank": 17, "bunkei_hensachi_rank": 21 }, "geometry": { "type": "Point", "coordinates": [ 140.134395527462743, 39.727211960216742 ] } },
{ "type": "Feature", "properties": { "name": "山形大学", "rikei_hensachi": 54, "bunkei_hensachi": 54, "rikei_hensachi_rank": 17, "bunkei_hensachi_rank": 18 }, "geometry": { "type": "Point", "coordinates": [ 140.349235571432416, 38.246935623681097 ] } },
{ "type": "Feature", "properties": { "name": "福島大学", "rikei_hensachi": 52, "bunkei_hensachi": 54, "rikei_hensachi_rank": 19, "bunkei_hensachi_rank": 18 }, "geometry": { "type": "Point", "coordinates": [ 140.454969881623214, 37.682978396091563 ] } },
{ "type": "Feature", "properties": { "name": "茨城大学", "rikei_hensachi": 53, "bunkei_hensachi": null, "rikei_hensachi_rank": 18, "bunkei_hensachi_rank": 25 }, "geometry": { "type": "Point", "coordinates": [ 140.44267261752978, 36.401146868294681 ] } },
{ "type": "Feature", "properties": { "name": "筑波大学", "rikei_hensachi": 63, "bunkei_hensachi": 69, "rikei_hensachi_rank": 8, "bunkei_hensachi_rank": 7 }, "geometry": { "type": "Point", "coordinates": [ 140.103999918307295, 36.111444404335792 ] } },
{ "type": "Feature", "properties": { "name": "筑波技術大学", "rikei_hensachi": 47, "bunkei_hensachi": 42, "rikei_hensachi_rank": 21, "bunkei_hensachi_rank": 24 }, "geometry": { "type": "Point", "coordinates": [ 140.110516607504735, 36.104176863059458 ] } },
{ "type": "Feature", "properties": { "name": "宇都宮大学", "rikei_hensachi": 53, "bunkei_hensachi": 55, "rikei_hensachi_rank": 18, "bunkei_hensachi_rank": 17 }, "geometry": { "type": "Point", "coordinates": [ 139.913100175741363, 36.548013503080448 ] } },
{ "type": "Feature", "properties": { "name": "群馬大学", "rikei_hensachi": 57, "bunkei_hensachi": 53, "rikei_hensachi_rank": 14, "bunkei_hensachi_rank": 19 }, "geometry": { "type": "Point", "coordinates": [ 139.045258545097823, 36.430740129344429 ] } },
{ "type": "Feature", "properties": { "name": "埼玉大学", "rikei_hensachi": 56, "bunkei_hensachi": 62, "rikei_hensachi_rank": 15, "bunkei_hensachi_rank": 12 }, "geometry": { "type": "Point", "coordinates": [ 139.607615531034867, 35.86239645847678 ] } },
{ "type": "Feature", "properties": { "name": "千葉大学", "rikei_hensachi": 63, "bunkei_hensachi": 66, "rikei_hensachi_rank": 8, "bunkei_hensachi_rank": 10 }, "geometry": { "type": "Point", "coordinates": [ 140.102901241371313, 35.628746830318967 ] } },
{ "type": "Feature", "properties": { "name": "東京工業大学", "rikei_hensachi": 69, "bunkei_hensachi": null, "rikei_hensachi_rank": 3, "bunkei_hensachi_rank": 25 }, "geometry": { "type": "Point", "coordinates": [ 139.683856267238838, 35.604405324942981 ] } },
{ "type": "Feature", "properties": { "name": "電気通信大学", "rikei_hensachi": 59, "bunkei_hensachi": null, "rikei_hensachi_rank": 12, "bunkei_hensachi_rank": 25 }, "geometry": { "type": "Point", "coordinates": [ 139.54362730126914, 35.657730947939427 ] } },
{ "type": "Feature", "properties": { "name": "東京海洋大学", "rikei_hensachi": 58, "bunkei_hensachi": null, "rikei_hensachi_rank": 13, "bunkei_hensachi_rank": 25 }, "geometry": { "type": "Point", "coordinates": [ 139.747223471900526, 35.627853337178578 ] } },
{ "type": "Feature", "properties": { "name": "東京外国語大学", "rikei_hensachi": null, "bunkei_hensachi": 67, "rikei_hensachi_rank": 22, "bunkei_hensachi_rank": 9 }, "geometry": { "type": "Point", "coordinates": [ 139.519268749142867, 35.675150366786582 ] } },
{ "type": "Feature", "properties": { "name": "政策研究大学院大学", "rikei_hensachi": null, "bunkei_hensachi": null, "rikei_hensachi_rank": 22, "bunkei_hensachi_rank": 25 }, "geometry": { "type": "Point", "coordinates": [ 139.7270577324947, 35.663841223221354 ] } },
{ "type": "Feature", "properties": { "name": "東京医科歯科大学", "rikei_hensachi": 69, "bunkei_hensachi": null, "rikei_hensachi_rank": 3, "bunkei_hensachi_rank": 25 }, "geometry": { "type": "Point", "coordinates": [ 139.764189836549861, 35.70175299253453 ] } },
{ "type": "Feature", "properties": { "name": "東京農工大学", "rikei_hensachi": 60, "bunkei_hensachi": null, "rikei_hensachi_rank": 11, "bunkei_hensachi_rank": 25 }, "geometry": { "type": "Point", "coordinates": [ 139.478671545307407, 35.683971793079252 ] } },
{ "type": "Feature", "properties": { "name": "一橋大学", "rikei_hensachi": null, "bunkei_hensachi": 76, "rikei_hensachi_rank": 22, "bunkei_hensachi_rank": 3 }, "geometry": { "type": "Point", "coordinates": [ 139.44338563551176, 35.693798701827838 ] } },
{ "type": "Feature", "properties": { "name": "東京大学", "rikei_hensachi": 76, "bunkei_hensachi": 83, "rikei_hensachi_rank": 1, "bunkei_hensachi_rank": 1 }, "geometry": { "type": "Point", "coordinates": [ 139.762976245744738, 35.713735733550017 ] } },
{ "type": "Feature", "properties": { "name": "東京芸術大学", "rikei_hensachi": null, "bunkei_hensachi": 62, "rikei_hensachi_rank": 22, "bunkei_hensachi_rank": 12 }, "geometry": { "type": "Point", "coordinates": [ 139.771939526962967, 35.720197496714626 ] } },
{ "type": "Feature", "properties": { "name": "お茶の水女子大学", "rikei_hensachi": 67, "bunkei_hensachi": 70, "rikei_hensachi_rank": 5, "bunkei_hensachi_rank": 6 }, "geometry": { "type": "Point", "coordinates": [ 139.73246276739016, 35.71872825874032 ] } },
{ "type": "Feature", "properties": { "name": "東京学芸大学", "rikei_hensachi": null, "bunkei_hensachi": 60, "rikei_hensachi_rank": 22, "bunkei_hensachi_rank": 14 }, "geometry": { "type": "Point", "coordinates": [ 139.490309257458193, 35.705305876457466 ] } },
{ "type": "Feature", "properties": { "name": "横浜国立大学", "rikei_hensachi": 63, "bunkei_hensachi": 66, "rikei_hensachi_rank": 8, "bunkei_hensachi_rank": 10 }, "geometry": { "type": "Point", "coordinates": [ 139.591964718157243, 35.473007143803407 ] } },
{ "type": "Feature", "properties": { "name": "総合研究大学院大学", "rikei_hensachi": null, "bunkei_hensachi": null, "rikei_hensachi_rank": 22, "bunkei_hensachi_rank": 25 }, "geometry": { "type": "Point", "coordinates": [ 139.608542793494053, 35.261139176321592 ] } },
{ "type": "Feature", "properties": { "name": "新潟大学", "rikei_hensachi": 58, "bunkei_hensachi": 55, "rikei_hensachi_rank": 13, "bunkei_hensachi_rank": 17 }, "geometry": { "type": "Point", "coordinates": [ 138.941644125962625, 37.868521238238323 ] } },
{ "type": "Feature", "properties": { "name": "長岡技術科学大学", "rikei_hensachi": 49, "bunkei_hensachi": null, "rikei_hensachi_rank": 20, "bunkei_hensachi_rank": 25 }, "geometry": { "type": "Point", "coordinates": [ 138.778126655744444, 37.424564100899296 ] } },
{ "type": "Feature", "properties": { "name": "上越教育大学", "rikei_hensachi": null, "bunkei_hensachi": 52, "rikei_hensachi_rank": 22, "bunkei_hensachi_rank": 20 }, "geometry": { "type": "Point", "coordinates": [ 138.225281448632842, 37.136279147779447 ] } },
{ "type": "Feature", "properties": { "name": "富山大学", "rikei_hensachi": 57, "bunkei_hensachi": 55, "rikei_hensachi_rank": 14, "bunkei_hensachi_rank": 17 }, "geometry": { "type": "Point", "coordinates": [ 137.187355656776788, 36.698899768947292 ] } },
{ "type": "Feature", "properties": { "name": "金沢大学", "rikei_hensachi": 61, "bunkei_hensachi": 60, "rikei_hensachi_rank": 10, "bunkei_hensachi_rank": 14 }, "geometry": { "type": "Point", "coordinates": [ 136.711125784548216, 36.550514744212165 ] } },
{ "type": "Feature", "properties": { "name": "北陸先端科学技術大学院大学", "rikei_hensachi": null, "bunkei_hensachi": null, "rikei_hensachi_rank": 22, "bunkei_hensachi_rank": 25 }, "geometry": { "type": "Point", "coordinates": [ 136.592648947943559, 36.444478392503399 ] } },
{ "type": "Feature", "properties": { "name": "福井大学", "rikei_hensachi": 58, "bunkei_hensachi": 54, "rikei_hensachi_rank": 13, "bunkei_hensachi_rank": 18 }, "geometry": { "type": "Point", "coordinates": [ 136.213123966219655, 36.076219806305879 ] } },
{ "type": "Feature", "properties": { "name": "山梨大学", "rikei_hensachi": 52, "bunkei_hensachi": 54, "rikei_hensachi_rank": 19, "bunkei_hensachi_rank": 18 }, "geometry": { "type": "Point", "coordinates": [ 138.572888488963912, 35.678463581149003 ] } },
{ "type": "Feature", "properties": { "name": "信州大学", "rikei_hensachi": 57, "bunkei_hensachi": 54, "rikei_hensachi_rank": 14, "bunkei_hensachi_rank": 18 }, "geometry": { "type": "Point", "coordinates": [ 137.978993612625999, 36.250143820009811 ] } },
{ "type": "Feature", "properties": { "name": "岐阜大学", "rikei_hensachi": 61, "bunkei_hensachi": 60, "rikei_hensachi_rank": 10, "bunkei_hensachi_rank": 14 }, "geometry": { "type": "Point", "coordinates": [ 136.737574380631003, 35.465181325884629 ] } },
{ "type": "Feature", "properties": { "name": "静岡大学", "rikei_hensachi": 56, "bunkei_hensachi": 56, "rikei_hensachi_rank": 15, "bunkei_hensachi_rank": 16 }, "geometry": { "type": "Point", "coordinates": [ 138.432880660954652, 34.96559880176828 ] } },
{ "type": "Feature", "properties": { "name": "浜松医科大学", "rikei_hensachi": 62, "bunkei_hensachi": null, "rikei_hensachi_rank": 9, "bunkei_hensachi_rank": 25 }, "geometry": { "type": "Point", "coordinates": [ 137.742678729286951, 34.768880911265164 ] } },
{ "type": "Feature", "properties": { "name": "名古屋大学", "rikei_hensachi": 66, "bunkei_hensachi": 71, "rikei_hensachi_rank": 6, "bunkei_hensachi_rank": 5 }, "geometry": { "type": "Point", "coordinates": [ 136.96376353848828, 35.155074823281751 ] } },
{ "type": "Feature", "properties": { "name": "名古屋工業大学", "rikei_hensachi": 61, "bunkei_hensachi": null, "rikei_hensachi_rank": 10, "bunkei_hensachi_rank": 25 }, "geometry": { "type": "Point", "coordinates": [ 136.925020426082114, 35.157112018603812 ] } },
{ "type": "Feature", "properties": { "name": "愛知教育大学", "rikei_hensachi": null, "bunkei_hensachi": 56, "rikei_hensachi_rank": 22, "bunkei_hensachi_rank": 16 }, "geometry": { "type": "Point", "coordinates": [ 137.049867522019838, 35.052639038108964 ] } },
{ "type": "Feature", "properties": { "name": "豊橋技術科学大学", "rikei_hensachi": 53, "bunkei_hensachi": null, "rikei_hensachi_rank": 18, "bunkei_hensachi_rank": 25 }, "geometry": { "type": "Point", "coordinates": [ 137.410142844854391, 34.700917825029819 ] } },
{ "type": "Feature", "properties": { "name": "三重大学", "rikei_hensachi": 59, "bunkei_hensachi": 60, "rikei_hensachi_rank": 12, "bunkei_hensachi_rank": 14 }, "geometry": { "type": "Point", "coordinates": [ 136.523096412381477, 34.745639760090725 ] } },
{ "type": "Feature", "properties": { "name": "滋賀大学", "rikei_hensachi": 56, "bunkei_hensachi": 54, "rikei_hensachi_rank": 15, "bunkei_hensachi_rank": 18 }, "geometry": { "type": "Point", "coordinates": [ 136.247184766221864, 35.278154517100859 ] } },
{ "type": "Feature", "properties": { "name": "滋賀医科大学", "rikei_hensachi": 63, "bunkei_hensachi": null, "rikei_hensachi_rank": 8, "bunkei_hensachi_rank": 25 }, "geometry": { "type": "Point", "coordinates": [ 135.949928536778742, 34.973853927873115 ] } },
{ "type": "Feature", "properties": { "name": "京都大学", "rikei_hensachi": 71, "bunkei_hensachi": 80, "rikei_hensachi_rank": 2, "bunkei_hensachi_rank": 2 }, "geometry": { "type": "Point", "coordinates": [ 135.780836537311188, 35.026319506155268 ] } },
{ "type": "Feature", "properties": { "name": "京都教育大学", "rikei_hensachi": null, "bunkei_hensachi": 56, "rikei_hensachi_rank": 22, "bunkei_hensachi_rank": 16 }, "geometry": { "type": "Point", "coordinates": [ 135.773130616090469, 34.949563179192516 ] } },
{ "type": "Feature", "properties": { "name": "京都工芸繊維大学", "rikei_hensachi": 59, "bunkei_hensachi": null, "rikei_hensachi_rank": 12, "bunkei_hensachi_rank": 25 }, "geometry": { "type": "Point", "coordinates": [ 135.781690788841786, 35.049388948661459 ] } },
{ "type": "Feature", "properties": { "name": "大阪大学", "rikei_hensachi": 68, "bunkei_hensachi": 73, "rikei_hensachi_rank": 4, "bunkei_hensachi_rank": 4 }, "geometry": { "type": "Point", "coordinates": [ 135.523808213480038, 34.818761289401962 ] } },
{ "type": "Feature", "properties": { "name": "大阪教育大学", "rikei_hensachi": null, "bunkei_hensachi": 52, "rikei_hensachi_rank": 22, "bunkei_hensachi_rank": 20 }, "geometry": { "type": "Point", "coordinates": [ 135.650613093307157, 34.551277247764105 ] } },
{ "type": "Feature", "properties": { "name": "神戸大学", "rikei_hensachi": 63, "bunkei_hensachi": 71, "rikei_hensachi_rank": 8, "bunkei_hensachi_rank": 5 }, "geometry": { "type": "Point", "coordinates": [ 135.235163352740045, 34.725395154947584 ] } },
{ "type": "Feature", "properties": { "name": "兵庫教育大学", "rikei_hensachi": null, "bunkei_hensachi": 53, "rikei_hensachi_rank": 22, "bunkei_hensachi_rank": 19 }, "geometry": { "type": "Point", "coordinates": [ 135.015711321761444, 34.912336014908604 ] } },
{ "type": "Feature", "properties": { "name": "奈良教育大学", "rikei_hensachi": null, "bunkei_hensachi": null, "rikei_hensachi_rank": 22, "bunkei_hensachi_rank": 25 }, "geometry": { "type": "Point", "coordinates": [ 135.842439672145133, 34.674800726176564 ] } },
{ "type": "Feature", "properties": { "name": "奈良女子大学", "rikei_hensachi": 60, "bunkei_hensachi": 65, "rikei_hensachi_rank": 11, "bunkei_hensachi_rank": 11 }, "geometry": { "type": "Point", "coordinates": [ 135.828843610348144, 34.688252959455191 ] } },
{ "type": "Feature", "properties": { "name": "奈良先端科学技術大学院大学", "rikei_hensachi": null, "bunkei_hensachi": null, "rikei_hensachi_rank": 22, "bunkei_hensachi_rank": 25 }, "geometry": { "type": "Point", "coordinates": [ 135.734480911619414, 34.731979398954046 ] } },
{ "type": "Feature", "properties": { "name": "和歌山大学", "rikei_hensachi": 54, "bunkei_hensachi": 56, "rikei_hensachi_rank": 17, "bunkei_hensachi_rank": 16 }, "geometry": { "type": "Point", "coordinates": [ 135.15205932145679, 34.266593357302341 ] } },
{ "type": "Feature", "properties": { "name": "鳥取大学", "rikei_hensachi": 56, "bunkei_hensachi": 51, "rikei_hensachi_rank": 15, "bunkei_hensachi_rank": 21 }, "geometry": { "type": "Point", "coordinates": [ 134.172470761174736, 35.516687664814384 ] } },
{ "type": "Feature", "properties": { "name": "島根大学", "rikei_hensachi": 55, "bunkei_hensachi": 52, "rikei_hensachi_rank": 16, "bunkei_hensachi_rank": 20 }, "geometry": { "type": "Point", "coordinates": [ 133.067178127811445, 35.484867408013336 ] } },
{ "type": "Feature", "properties": { "name": "岡山大学", "rikei_hensachi": 60, "bunkei_hensachi": 61, "rikei_hensachi_rank": 11, "bunkei_hensachi_rank": 13 }, "geometry": { "type": "Point", "coordinates": [ 133.921509363623528, 34.689931857191354 ] } },
{ "type": "Feature", "properties": { "name": "広島大学", "rikei_hensachi": 60, "bunkei_hensachi": 60, "rikei_hensachi_rank": 11, "bunkei_hensachi_rank": 14 }, "geometry": { "type": "Point", "coordinates": [ 132.714913998721528, 34.403077999479116 ] } },
{ "type": "Feature", "properties": { "name": "山口大学", "rikei_hensachi": 56, "bunkei_hensachi": 53, "rikei_hensachi_rank": 15, "bunkei_hensachi_rank": 19 }, "geometry": { "type": "Point", "coordinates": [ 131.467905581855973, 34.148661854889184 ] } },
{ "type": "Feature", "properties": { "name": "徳島大学", "rikei_hensachi": 56, "bunkei_hensachi": null, "rikei_hensachi_rank": 15, "bunkei_hensachi_rank": 25 }, "geometry": { "type": "Point", "coordinates": [ 134.559880999622152, 34.070070000079234 ] } },
{ "type": "Feature", "properties": { "name": "鳴門教育大学", "rikei_hensachi": null, "bunkei_hensachi": 51, "rikei_hensachi_rank": 22, "bunkei_hensachi_rank": 21 }, "geometry": { "type": "Point", "coordinates": [ 134.604878335325282, 34.202553116712345 ] } },
{ "type": "Feature", "properties": { "name": "香川大学", "rikei_hensachi": 56, "bunkei_hensachi": 54, "rikei_hensachi_rank": 15, "bunkei_hensachi_rank": 18 }, "geometry": { "type": "Point", "coordinates": [ 134.03762807535341, 34.342809190508078 ] } },
{ "type": "Feature", "properties": { "name": "愛媛大学", "rikei_hensachi": 55, "bunkei_hensachi": 53, "rikei_hensachi_rank": 16, "bunkei_hensachi_rank": 19 }, "geometry": { "type": "Point", "coordinates": [ 132.771818558546613, 33.850370744191707 ] } },
{ "type": "Feature", "properties": { "name": "高知大学", "rikei_hensachi": 55, "bunkei_hensachi": 52, "rikei_hensachi_rank": 16, "bunkei_hensachi_rank": 20 }, "geometry": { "type": "Point", "coordinates": [ 133.48724789881993, 33.550052229729097 ] } },
{ "type": "Feature", "properties": { "name": "九州工業大学", "rikei_hensachi": 55, "bunkei_hensachi": null, "rikei_hensachi_rank": 16, "bunkei_hensachi_rank": 25 }, "geometry": { "type": "Point", "coordinates": [ 130.83932185636786, 33.89416363455306 ] } },
{ "type": "Feature", "properties": { "name": "福岡教育大学", "rikei_hensachi": null, "bunkei_hensachi": 51, "rikei_hensachi_rank": 22, "bunkei_hensachi_rank": 21 }, "geometry": { "type": "Point", "coordinates": [ 130.594658474700225, 33.812075946007212 ] } },
{ "type": "Feature", "properties": { "name": "九州大学", "rikei_hensachi": 63, "bunkei_hensachi": 68, "rikei_hensachi_rank": 8, "bunkei_hensachi_rank": 8 }, "geometry": { "type": "Point", "coordinates": [ 130.223468210017558, 33.59749420901062 ] } },
{ "type": "Feature", "properties": { "name": "佐賀大学", "rikei_hensachi": 56, "bunkei_hensachi": 53, "rikei_hensachi_rank": 15, "bunkei_hensachi_rank": 19 }, "geometry": { "type": "Point", "coordinates": [ 130.291381900307812, 33.242201039385733 ] } },
{ "type": "Feature", "properties": { "name": "長崎大学", "rikei_hensachi": 59, "bunkei_hensachi": 53, "rikei_hensachi_rank": 12, "bunkei_hensachi_rank": 19 }, "geometry": { "type": "Point", "coordinates": [ 129.865278714910914, 32.786069069936026 ] } },
{ "type": "Feature", "properties": { "name": "熊本大学", "rikei_hensachi": 58, "bunkei_hensachi": 58, "rikei_hensachi_rank": 13, "bunkei_hensachi_rank": 15 }, "geometry": { "type": "Point", "coordinates": [ 130.72778062590578, 32.817583955521066 ] } },
{ "type": "Feature", "properties": { "name": "大分大学", "rikei_hensachi": 56, "bunkei_hensachi": 52, "rikei_hensachi_rank": 15, "bunkei_hensachi_rank": 20 }, "geometry": { "type": "Point", "coordinates": [ 131.613173191692624, 33.17573632344218 ] } },
{ "type": "Feature", "properties": { "name": "宮崎大学", "rikei_hensachi": 56, "bunkei_hensachi": 50, "rikei_hensachi_rank": 15, "bunkei_hensachi_rank": 22 }, "geometry": { "type": "Point", "coordinates": [ 131.413878189364112, 31.830806133424506 ] } },
{ "type": "Feature", "properties": { "name": "鹿児島大学", "rikei_hensachi": 57, "bunkei_hensachi": 52, "rikei_hensachi_rank": 14, "bunkei_hensachi_rank": 20 }, "geometry": { "type": "Point", "coordinates": [ 130.544203101524374, 31.570053052087051 ] } },
{ "type": "Feature", "properties": { "name": "鹿屋体育大学", "rikei_hensachi": null, "bunkei_hensachi": 49, "rikei_hensachi_rank": 22, "bunkei_hensachi_rank": 23 }, "geometry": { "type": "Point", "coordinates": [ 130.78853879887609, 31.395093452708917 ] } },
{ "type": "Feature", "properties": { "name": "琉球大学", "rikei_hensachi": 53, "bunkei_hensachi": 49, "rikei_hensachi_rank": 18, "bunkei_hensachi_rank": 23 }, "geometry": { "type": "Point", "coordinates": [ 127.758744363673259, 26.241351873945888 ] } }
]
}
